{
  "type": "FeatureCollection",
  "features": [
    {
      "type": "Feature",
      "geometry": {
        "type": "Point",
        "coordinates": [
          132.738865,
          35.367631
        ]
      },
      "properties": {
        "region": "出雲",
        "store_name": "イオンスタイル出雲",
        "address_partial": "島根県出雲市渡橋町1066",
        "recycling_paper": "ダンボール, 牛乳パック, 新聞, 雑誌類",
        "recycling_plastic": "白色トレイ, 白色以外のトレイ, 透明プラ容器, ペットボトル",
        "recycling_cans_bottles": ""
      }
    },
    {
      "type": "Feature",
      "geometry": {
        "type": "Point",
        "coordinates": [
          132.753385,  
          35.374665   
        ]
      },
      "properties": {
        "region": "出雲",
        "store_name": "グッディー医大通店",
        "address_partial": "島根県出雲市塩冶町2125-1",
        "recycling_paper": "ダンボール, 牛乳パック, 新聞, 雑誌類",
        "recycling_plastic": "白色トレイ, 白色以外のトレイ, 透明プラ容器, ペットボトル",
        "recycling_cans_bottles": "スチール缶, アルミ缶, リターナブルびん"
      }
    },
    {
      "type": "Feature",
      "geometry": {
        "type": "Point",
        "coordinates": [
          132.766358,
          35.385559
        ]
      },
      "properties": {
        "region": "出雲",
        "store_name": "グッディー北部店",
        "address_partial": "島根県出雲市大津朝倉1-6-6",
        "recycling_paper": "ダンボール, 牛乳パック, 新聞, 雑誌類",
        "recycling_plastic": "白色トレイ, 白色以外のトレイ, 透明プラ容器, ペットボトル",
        "recycling_cans_bottles": "スチール缶, アルミ缶, リターナブルびん"
      }
    },
    {
      "type": "Feature",
      "geometry": {
        "type": "Point",
        "coordinates": [
          132.744158,  
          35.379854   
        ]
      },
      "properties": {
        "region": "出雲",
        "store_name": "食の専門市場 あんり",
        "address_partial": "島根県出雲市渡橋町1290",
        "recycling_paper": "ダンボール, 牛乳パック, 新聞, 雑誌類",
        "recycling_plastic": "白色トレイ, 白色以外のトレイ, 透明プラ容器",
        "recycling_cans_bottles": ""
      }
    },
    {
      "type": "Feature",
      "geometry": {
        "type": "Point",
        "coordinates": [
          132.749177,
          35.359268
        ]
      },
      "properties": {
        "region": "出雲",
        "store_name": "SUPER CENTER PLANT 出雲店",
        "address_partial": "島根県出雲市大津町250-1",
        "recycling_paper": "ダンボール, 牛乳パック, 新聞, 雑誌類",
        "recycling_plastic": "白色トレイ, 白色以外のトレイ, 透明プラ容器, ペットボトル",
        "recycling_cans_bottles": "スチール缶, アルミ缶"
      }
    },
    {
      "type": "Feature",
      "geometry": {
        "type": "Point",
        "coordinates": [
          132.768812,
          35.362658
        ]
      },
      "properties": {
        "region": "出雲",
        "store_name": "生鮮食品おだ出雲店",
        "address_partial": "島根県出雲市矢野町864-1",
        "recycling_paper": "ダンボール, 牛乳パック",
        "recycling_plastic": "白色トレイ",
        "recycling_cans_bottles": ""
      }
    },
    {
      "type": "Feature",
      "geometry": {
        "type": "Point",
        "coordinates": [
          132.752144,
          35.377891
        ]
      },
      "properties": {
        "region": "出雲",
        "store_name": "フーズマーケットホック塩冶店",
        "address_partial": "島根県出雲市塩冶町1200",
        "recycling_paper": "ダンボール, 牛乳パック, 新聞, 雑誌類",
        "recycling_plastic": "白色トレイ",
        "recycling_cans_bottles": ""
      }
    },
    {
      "type": "Feature",
      "geometry": {
        "type": "Point",
        "coordinates": [
          132.730089,
          35.340067
        ]
      },
      "properties": {
        "region": "出雲",
        "store_name": "藤増ストアー古志店",
        "address_partial": "島根県出雲市古志町1052",
        "recycling_paper": "ダンボール, 牛乳パック, 新聞, 雑誌類",
        "recycling_plastic": "白色トレイ",
        "recycling_cans_bottles": "リターナブルびん"
      }
    },
    {
      "type": "Feature",
      "geometry": {
        "type": "Point",
        "coordinates": [
          132.719311,
          35.334425
        ]
      },
      "properties": {
        "region": "出雲",
        "store_name": "藤増ストアー知井宮店",
        "address_partial": "島根県出雲市知井宮町342",
        "recycling_paper": "ダンボール, 牛乳パック, 新聞, 雑誌類",
        "recycling_plastic": "白色トレイ",
        "recycling_cans_bottles": ""
      }
    },
    {
      "type": "Feature",
      "geometry": {
        "type": "Point",
        "coordinates": [
          132.764533,
          35.367189
        ]
      },
      "properties": {
        "region": "出雲",
        "store_name": "マックスバリュ今市店",
        "address_partial": "島根県出雲市今市町139-1",
        "recycling_paper": "ダンボール, 牛乳パック, 新聞, 雑誌類",
        "recycling_plastic": "白色トレイ, 白色以外のトレイ, 透明プラ容器, ペットボトル",
        "recycling_cans_bottles": ""
      }
    },
    {
      "type": "Feature",
      "geometry": {
        "type": "Point",
        "coordinates": [
          132.742289,
          35.385344
        ]
      },
      "properties": {
        "region": "出雲",
        "store_name": "マックスバリュ川跡店",
        "address_partial": "島根県出雲市稲岡町37",
        "recycling_paper": "ダンボール, 牛乳パック, 新聞, 雑誌類",
        "recycling_plastic": "白色トレイ, 白色以外のトレイ, 透明プラ容器, ペットボトル",
        "recycling_cans_bottles": ""
      }
    },
    {
      "type": "Feature",
      "geometry": {
        "type": "Point",
        "coordinates": [
          132.754921,
          35.377312
        ]
      },
      "properties": {
        "region": "出雲",
        "store_name": "ゆめタウン出雲店",
        "address_partial": "島根県出雲市大塚町650-1",
        "recycling_paper": "ダンボール, 牛乳パック, 新聞, 雑誌類",
        "recycling_plastic": "白色トレイ, 白色以外のトレイ, 透明プラ容器, ペットボトル",
        "recycling_cans_bottles": "スチール缶, アルミ缶, リターナブルびん"
      }
    },
    {
      "type": "Feature",
      "geometry": {
        "type": "Point",
        "coordinates": [
          132.702766,
          35.337378
        ]
      },
      "properties": {
        "region": "出雲",
        "store_name": "ゆめマート神西",
        "address_partial": "島根県出雲市大島町24-1",
        "recycling_paper": "ダンボール, 牛乳パック, 新聞, 雑誌類",
        "recycling_plastic": "白色トレイ, 白色以外のトレイ, 透明プラ容器, ペットボトル",
        "recycling_cans_bottles": "スチール缶, アルミ缶, リターナブルびん"
      }
    },
    {
      "type": "Feature",
      "geometry": {
        "type": "Point",
        "coordinates": [
          132.725758,
          35.365956
        ]
      },
      "properties": {
        "region": "出雲",
        "store_name": "ラピタはまやま店",
        "address_partial": "島根県出雲市松寄下町1150-1",
        "recycling_paper": "ダンボール, 牛乳パック, 新聞, 雑誌類",
        "recycling_plastic": "白色トレイ, 白色以外のトレイ, 透明プラ容器, ペットボトル",
        "recycling_cans_bottles": "スチール缶, アルミ缶, リターナブルびん"
      }
    },
    {
      "type": "Feature",
      "geometry": {
        "type": "Point",
        "coordinates": [
          132.753801,
          35.368378
        ]
      },
      "properties": {
        "region": "出雲",
        "store_name": "ラピタ本店",
        "address_partial": "島根県出雲市今市町1275",
        "recycling_paper": "ダンボール, 牛乳パック, 新聞, 雑誌類",
        "recycling_plastic": "白色トレイ, 白色以外のトレイ, 透明プラ容器, ペットボトル（キャップも回収）",
        "recycling_cans_bottles": "スチール缶, アルミ缶"
      }
    },
    {
      "type": "Feature",
      "geometry": {
        "type": "Point",
        "coordinates": [
          132.757673,
          35.355214
        ]
      },
      "properties": {
        "region": "出雲",
        "store_name": "ラピタみなみ店",
        "address_partial": "島根県出雲市塩冶町990",
        "recycling_paper": "ダンボール, 牛乳パック, 新聞, 雑誌類",
        "recycling_plastic": "白色トレイ, 白色以外のトレイ, 透明プラ容器, ペットボトル",
        "recycling_cans_bottles": "スチール缶, アルミ缶, リターナブルびん"
      }
    },
    {
      "type": "Feature",
      "geometry": {
        "type": "Point",
        "coordinates": [
          132.825944,
          35.435134
        ]
      },
      "properties": {
        "region": "平田",
        "store_name": "グッディー平田店",
        "address_partial": "島根県出雲市平田町2390",
        "recycling_paper": "ダンボール, 牛乳パック, 新聞, 雑誌類",
        "recycling_plastic": "白色トレイ, 白色以外のトレイ, 透明プラ容器, ペットボトル",
        "recycling_cans_bottles": "スチール缶, アルミ缶, リターナブルびん"
      }
    },
    {
      "type": "Feature",
      "geometry": {
        "type": "Point",
        "coordinates": [
          132.825634,
          35.437184
        ]
      },
      "properties": {
        "region": "平田",
        "store_name": "フーズマーケットホック平田店",
        "address_partial": "島根県出雲市平田町1836-1",
        "recycling_paper": "ダンボール, 牛乳パック, 新聞, 雑誌類",
        "recycling_plastic": "白色トレイ",
        "recycling_cans_bottles": ""
      }
    },
    {
      "type": "Feature",
      "geometry": {
        "type": "Point",
        "coordinates": [
          132.823013,
          35.435822
        ]
      },
      "properties": {
        "region": "平田",
        "store_name": "丸合平田店",
        "address_partial": "島根県出雲市平田町1598",
        "recycling_paper": "ダンボール, 牛乳パック, 新聞, 雑誌類",
        "recycling_plastic": "白色トレイ",
        "recycling_cans_bottles": ""
      }
    },
    {
      "type": "Feature",
      "geometry": {
        "type": "Point",
        "coordinates": [
          132.823887,
          35.439324
        ]
      },
      "properties": {
        "region": "平田",
        "store_name": "ラピタひらた店",
        "address_partial": "島根県出雲市平田町2350",
        "recycling_paper": "ダンボール, 牛乳パック, 新聞, 雑誌類",
        "recycling_plastic": "白色トレイ, 白色以外のトレイ, 透明プラ容器, ペットボトル",
        "recycling_cans_bottles": "スチール缶, アルミ缶, リターナブルびん"
      }
    },
    {
      "type": "Feature",
      "geometry": {
        "type": "Point",
        "coordinates": [
          132.714746,
          35.254620
        ]
      },
      "properties": {
        "region": "佐田",
        "store_name": "ラピタ佐田店",
        "address_partial": "島根県出雲市佐田町反辺1586-12",
        "recycling_paper": "ダンボール, 牛乳パック, 新聞, 雑誌類",
        "recycling_plastic": "白色トレイ, 白色以外のトレイ, 透明プラ容器, ペットボトル",
        "recycling_cans_bottles": "スチール缶, アルミ缶"
      }
    },
    {
      "type": "Feature",
      "geometry": {
        "type": "Point",
        "coordinates": [
          132.627891,
          35.285932
        ]
      },
      "properties": {
        "region": "多伎",
        "store_name": "ラピタ多伎店",
        "address_partial": "島根県出雲市多伎町多岐",
        "recycling_paper": "ダンボール, 牛乳パック, 新聞, 雑誌類",
        "recycling_plastic": "白色トレイ, 白色以外のトレイ, 透明プラ容器, ペットボトル",
        "recycling_cans_bottles": "スチール缶, アルミ缶"
      }
    },
    {
      "type": "Feature",
      "geometry": {
        "type": "Point",
        "coordinates": [
          132.684470,
          35.385590
        ]
      },
      "properties": {
        "region": "湖陵",
        "store_name": "ラピタ湖陵店",
        "address_partial": "島根県出雲市湖陵町差海708-5",
        "recycling_paper": "ダンボール, 牛乳パック, 新聞, 雑誌類",
        "recycling_plastic": "白色トレイ, 白色以外のトレイ, 透明プラ容器, ペットボトル",
        "recycling_cans_bottles": "スチール缶, アルミ缶, リターナブルびん"
      }
    },
    {
      "type": "Feature",
      "geometry": {
        "type": "Point",
        "coordinates": [
          132.697438,
          35.405795
        ]
      },
      "properties": {
        "region": "大社",
        "store_name": "フーズマーケットホック大社店",
        "address_partial": "島根県出雲市大社町北荒木625-2",
        "recycling_paper": "ダンボール, 牛乳パック, 新聞, 雑誌類",
        "recycling_plastic": "白色トレイ",
        "recycling_cans_bottles": ""
      }
    },
    {
      "type": "Feature",
      "geometry": {
        "type": "Point",
        "coordinates": [
          132.709997,
          35.405559
        ]
      },
      "properties": {
        "region": "大社",
        "store_name": "フーズマーケットホック大社浜山店",
        "address_partial": "島根県出雲市大社町入南608-1",
        "recycling_paper": "ダンボール, 牛乳パック, 新聞, 雑誌類",
        "recycling_plastic": "白色トレイ",
        "recycling_cans_bottles": ""
      }
    },
    {
      "type": "Feature",
      "geometry": {
        "type": "Point",
        "coordinates": [
          132.686526,
          35.400615
        ]
      },
      "properties": {
        "region": "大社",
        "store_name": "ラピタ大社店",
        "address_partial": "島根県出雲市大社町杵築南本町996",
        "recycling_paper": "ダンボール, 牛乳パック, 新聞, 雑誌類",
        "recycling_plastic": "白色トレイ, 白色以外のトレイ, 透明プラ容器, ペットボトル",
        "recycling_cans_bottles": "スチール缶, アルミ缶, リターナブルびん"
      }
    },
    {
      "type": "Feature",
      "geometry": {
        "type": "Point",
        "coordinates": [
          132.807551,
          35.373626
        ]
      },
      "properties": {
        "region": "斐川",
        "store_name": "グッディー斐川店",
        "address_partial": "島根県出雲市斐川町上直江1222",
        "recycling_paper": "ダンボール, 牛乳パック, 新聞, 雑誌類",
        "recycling_plastic": "白色トレイ, 白色以外のトレイ, 透明プラ容器, ペットボトル",
        "recycling_cans_bottles": "スチール缶, アルミ缶, リターナブルびん"
      }
    },
    {
      "type": "Feature",
      "geometry": {
        "type": "Point",
        "coordinates": [
          132.866172,
          35.396625
        ]
      },
      "properties": {
        "region": "斐川",
        "store_name": "SUPER CENTER PLANT 斐川店",
        "address_partial": "島根県出雲市斐川町荘原1249",
        "recycling_paper": "ダンボール, 牛乳パック, 新聞, 雑誌類",
        "recycling_plastic": "白色トレイ, 白色以外のトレイ, 透明プラ容器, ペットボトル",
        "recycling_cans_bottles": "スチール缶, アルミ缶"
      }
    },
    {
      "type": "Feature",
      "geometry": {
        "type": "Point",
        "coordinates": [
          132.844137,
          35.385349
        ]
      },
      "properties": {
        "region": "斐川",
        "store_name": "生鮮食品おだ斐川店",
        "address_partial": "島根県出雲市斐川町黒目535",
        "recycling_paper": "ダンボール, 牛乳パック",
        "recycling_plastic": "白色トレイ",
        "recycling_cans_bottles": ""
      }
    },
    {
      "type": "Feature",
      "geometry": {
        "type": "Point",
        "coordinates": [
          132.808266,
          35.387901
        ]
      },
      "properties": {
        "region": "斐川",
        "store_name": "ゆめタウン斐川店",
        "address_partial": "島根県出雲市斐川町上直江1301-1",
        "recycling_paper": "ダンボール, 牛乳パック, 新聞, 雑誌類",
        "recycling_plastic": "白色トレイ, 白色以外のトレイ, 透明プラ容器, ペットボトル",
        "recycling_cans_bottles": "スチール缶, アルミ缶, リターナブルびん"
      }
    }
  ]
}